[
    {
        "userid": "alex@alex.com",
        "cities": {
            "Paris": {
                "attraction1": {
                    "name": "Tour Eiffel",
                    "visited": "no",
                    "longitude": 48.85851125395903,
                    "latitude": 2.2945349423630814,
                    "visitdate": "10.1.2023"
                },
                "attraction2": {
                    "name": "Arc de Triomphe",
                    "visited": "no",
                    "longitude": 48.87396103664762,
                    "latitude": 2.295059684550192,
                    "visitdate": "10.1.2023"
                },
                "attraction3": {
                    "name": "Louvre",
                    "visited": "no",
                    "longitude": 48.86079459806644,
                    "latitude": 2.337676184549711,
                    "visitdate": "10.1.2023"
                },
                "attraction4": {
                    "name": "Notre Dame",
                    "visited": "no",
                    "longitude": 48.8530811519608,
                    "latitude": 2.3499879306418596,
                    "visitdate": " "
                },
                "attraction5": {
                    "name": "Musee Orsay",
                    "visited": "no",
                    "longitude": 48.860102549471065,
                    "latitude": 2.326550669206376,
                    "visitdate": "10.11.2022"
                },
                "attraction6": {
                    "name": "Sainte Chappelle",
                    "visited": "no",
                    "longitude": 48.855487925813925,
                    "latitude": 2.3449501692061863,
                    "visitdate": " "
                },
                "attraction7": {
                    "name": "Opera Garnier",
                    "visited": "no",
                    "longitude": 48.872139042815256,
                    "latitude": 2.331547753863475,
                    "visitdate": " "
                },
                "attraction8": {
                    "name": "Centre Georges Pompidou",
                    "visited": "no",
                    "longitude": 48.86080432275688,
                    "latitude": 2.3522235403705403,
                    "visitdate": "01.01.2023"
                },
                "attraction9": {
                    "name": "Jardin du Luxembourg",
                    "visited": "no",
                    "longitude": 48.84633559075047,
                    "latitude": 2.337119659683348,
                    "visitdate": " "
                },
                "attraction10": {
                    "name": "Jardin des Tuileries",
                    "visited": "no",
                    "longitude": 48.86365391351409,
                    "latitude": 2.327472840370637,
                    "visitdate": "9.1.2023"
                }
            },
            "Kiew": {
                "attraction1": {
                    "name": "St. Sophias Cathedral",
                    "visited": "no",
                    "longitude": 50.452930310022666,
                    "latitude":  30.514088820489057,
                    "visitdate": " "
                }
            }
        }
    }
]